[{"name":"北京首都国际机场","icao":"ZBAA","iata":"PEK","status":0,"enable_year":"1958","level":"4F","city_name":"北京市","location":{"type":"Point","coordinates":[116.58444,40.08]}},{"name":"北京大兴国际机场","icao":"ZBAD","iata":"PKX","status":0,"enable_year":"2019","level":"4F","city_name":"北京市、廊坊市","location":{"type":"Point","coordinates":[116.41056,39.51167]}},{"name":"天津滨海国际机场","icao":"ZBTJ","iata":"TSN","status":0,"enable_year":"1947","level":"4F","city_name":"天津市","location":{"type":"Point","coordinates":[117.34611,39.12444]}},{"name":"石家庄正定国际机场","icao":"ZBSJ","iata":"SJW","status":0,"enable_year":"1995","level":"4E","city_name":"石家庄市","location":{"type":"Point","coordinates":[114.69944,38.27833]}},{"name":"秦皇岛北戴河机场","icao":"ZBDH","iata":"BPE","status":0,"enable_year":"2016","level":"4D","city_name":"秦皇岛市","location":{"type":"Point","coordinates":[119.06444,39.66444]}},{"name":"邯郸机场","icao":"ZBHD","iata":"HDG","status":0,"enable_year":"2007","level":"4C","city_name":"邯郸市","location":{"type":"Point","coordinates":[114.43,36.52389]}},{"name":"唐山三女河机场","icao":"ZBSN","iata":"TVS","status":0,"enable_year":"2010","level":"4C","city_name":"唐山市","location":{"type":"Point","coordinates":[118.00333,39.71778]}},{"name":"张家口宁远机场","icao":"ZBZJ","iata":"ZQZ","status":0,"enable_year":"2013","level":"4C","city_name":"张家口市","location":{"type":"Point","coordinates":[114.93083,40.73917]}},{"name":"承德普宁机场","icao":"ZBCD","iata":"CDE","status":0,"enable_year":"2017","level":"4C","city_name":"承德市","location":{"type":"Point","coordinates":[118.081067,41.127671]}},{"name":"邢台褡裢机场","icao":"ZBXT","iata":"XNT","status":2,"enable_year":"","level":"4C","city_name":"邢台市","location":{"type":"Point","coordinates":[114.42944,36.89194]}},{"name":"太原武宿国际机场","icao":"ZBYN","iata":"TYN","status":0,"enable_year":"1971","level":"4E","city_name":"太原市、晋中市","location":{"type":"Point","coordinates":[112.62833,37.74694]}},{"name":"运城张孝机场","icao":"ZBYC","iata":"YCU","status":0,"enable_year":"2005","level":"4D","city_name":"运城市","location":{"type":"Point","coordinates":[111.03583,35.11639]}},{"name":"长治王村机场","icao":"ZBCZ","iata":"CIH","status":0,"enable_year":"1958","level":"4C","city_name":"长治市","location":{"type":"Point","coordinates":[113.12611,36.2475]}},{"name":"临汾乔李机场","icao":"ZBLF","iata":"LFQ","status":0,"enable_year":"1959","level":"4C","city_name":"临汾市","location":{"type":"Point","coordinates":[111.63722,36.13028]}},{"name":"大同云冈机场","icao":"ZBDT","iata":"DAT","status":0,"enable_year":"2006","level":"4C","city_name":"大同市","location":{"type":"Point","coordinates":[113.48028,40.05611]}},{"name":"吕梁大武机场","icao":"ZBLL","iata":"LLV","status":0,"enable_year":"2014","level":"4C","city_name":"吕梁市","location":{"type":"Point","coordinates":[111.14278,37.68333]}},{"name":"忻州五台山机场","icao":"ZBXZ","iata":"WUT","status":0,"enable_year":"2015","level":"4C","city_name":"忻州市","location":{"type":"Point","coordinates":[112.96778,38.59917]}},{"name":"晋城机场","icao":"","iata":"","status":1,"enable_year":"","level":"4C","city_name":"晋城市","location":{"type":"Point","coordinates":[112.916988,35.43388]}},{"name":"朔州安太堡机场","icao":"","iata":"","status":1,"enable_year":"","level":"4C","city_name":"朔州市","location":{"type":"Point","coordinates":[112.59694,39.47472]}},{"name":"呼和浩特白塔国际机场","icao":"ZBHH","iata":"HET","status":0,"enable_year":"1958","level":"4E","city_name":"呼和浩特市","location":{"type":"Point","coordinates":[111.825,40.85556]}},{"name":"鄂尔多斯伊金霍洛国际机场","icao":"ZBDS","iata":"DSN","status":0,"enable_year":"2007","level":"4E","city_name":"鄂尔多斯市","location":{"type":"Point","coordinates":[109.859595,39.497277]}},{"name":"呼伦贝尔海拉尔机场","icao":"ZBLA","iata":"HLD","status":0,"enable_year":"1953","level":"4D","city_name":"呼伦贝尔市","location":{"type":"Point","coordinates":[119.818936,49.209898]}},{"name":"包头东河机场","icao":"ZBOW","iata":"BAV","status":0,"enable_year":"1956","level":"4D","city_name":"包头市","location":{"type":"Point","coordinates":[109.998831,40.561379]}},{"name":"满洲里西郊机场","icao":"ZBMZ","iata":"NZH","status":0,"enable_year":"2005","level":"4D","city_name":"满洲里市","location":{"type":"Point","coordinates":[117.329938,49.569344]}},{"name":"通辽机场","icao":"ZBTL","iata":"TGO","status":0,"enable_year":"1958","level":"4C","city_name":"通辽市","location":{"type":"Point","coordinates":[122.202367,43.556756]}},{"name":"锡林浩特机场","icao":"ZBXH","iata":"XIL","status":0,"enable_year":"1992","level":"4C","city_name":"锡林浩特市","location":{"type":"Point","coordinates":[115.960197,43.915776]}},{"name":"乌兰浩特义勒力特机场","icao":"ZBUL","iata":"HLH","status":0,"enable_year":"1995","level":"4C","city_name":"乌兰浩特市","location":{"type":"Point","coordinates":[122.002898,46.194374]}},{"name":"乌海机场","icao":"ZBUH","iata":"WUA","status":0,"enable_year":"2003","level":"4C","city_name":"乌海市","location":{"type":"Point","coordinates":[106.801935,39.79184]}},{"name":"赤峰玉龙机场","icao":"ZBCF","iata":"CIF","status":0,"enable_year":"2008","level":"4C","city_name":"赤峰市","location":{"type":"Point","coordinates":[118.834694,42.154178]}},{"name":"二连浩特赛乌苏机场","icao":"ZBER","iata":"ERL","status":0,"enable_year":"2010","level":"4C","city_name":"二连浩特市","location":{"type":"Point","coordinates":[112.097124,43.425747]}},{"name":"巴彦淖尔天吉泰机场","icao":"ZBYZ","iata":"RLK","status":0,"enable_year":"2011","level":"4C","city_name":"巴彦淖尔市","location":{"type":"Point","coordinates":[107.747565,40.924701]}},{"name":"阿尔山伊尔施机场","icao":"ZBES","iata":"YIE","status":0,"enable_year":"2011","level":"4C","city_name":"阿尔山市","location":{"type":"Point","coordinates":[119.91194,47.31056]}},{"name":"乌兰察布集宁机场","icao":"ZBUC","iata":"UCB","status":0,"enable_year":"2016","level":"4C","city_name":"乌兰察布市","location":{"type":"Point","coordinates":[113.117489,41.128558]}},{"name":"扎兰屯成吉思汗机场","icao":"ZBZL","iata":"NZL","status":0,"enable_year":"2016","level":"4C","city_name":"扎兰屯市","location":{"type":"Point","coordinates":[122.767385,47.870602]}},{"name":"霍林郭勒霍林河机场","icao":"ZBHZ","iata":"HUO","status":0,"enable_year":"2017","level":"4C","city_name":"霍林郭勒市","location":{"type":"Point","coordinates":[119.41782,45.48595]}},{"name":"阿拉善左旗巴彦浩特机场","icao":"ZBAL","iata":"AXF","status":0,"enable_year":"2013","level":"3C","city_name":"阿拉善左旗","location":{"type":"Point","coordinates":[105.587646,38.748307]}},{"name":"阿拉善右旗巴丹吉林机场","icao":"ZBAR","iata":"RHT","status":0,"enable_year":"2013","level":"3C","city_name":"阿拉善右旗","location":{"type":"Point","coordinates":[101.441433,39.226059]}},{"name":"额济纳旗桃来机场","icao":"ZBEN","iata":"EJN","status":0,"enable_year":"2013","level":"3C","city_name":"额济纳旗","location":{"type":"Point","coordinates":[101.001008,42.012484]}},{"name":"呼和浩特盛乐国际机场","icao":"","iata":"","status":2,"enable_year":"","level":"4F、4E","city_name":"呼和浩特市"},{"name":"东乌珠穆沁旗机场","icao":"","iata":"","status":1,"enable_year":"","level":"","city_name":"东乌珠穆沁旗"},{"name":"林西机场","icao":"","iata":"","status":1,"enable_year":"","level":"","city_name":"林西县、克什克腾旗"},{"name":"正蓝旗机场","icao":"","iata":"","status":1,"enable_year":"","level":"","city_name":"正蓝旗"},{"name":"大连周水子国际机场","icao":"ZYTL","iata":"DLC","status":0,"enable_year":"1973","level":"4E","city_name":"大连市","location":{"type":"Point","coordinates":[121.541809,38.962738]}},{"name":"沈阳桃仙国际机场","icao":"ZYTX","iata":"SHE","status":0,"enable_year":"1989","level":"4E","city_name":"沈阳市","location":{"type":"Point","coordinates":[123.48361,41.64]}},{"name":"朝阳机场","icao":"ZYCY","iata":"CHG","status":0,"enable_year":"1960","level":"4C","city_name":"朝阳市","location":{"type":"Point","coordinates":[120.441613,41.546809]}},{"name":"丹东浪头机场","icao":"ZYDD","iata":"DDG","status":0,"enable_year":"1985","level":"4C","city_name":"丹东市","location":{"type":"Point","coordinates":[124.287032,40.0318]}},{"name":"鞍山腾鳌机场","icao":"ZYAS","iata":"AOG","status":0,"enable_year":"1987","level":"4C","city_name":"鞍山市","location":{"type":"Point","coordinates":[122.866499,41.112941]}},{"name":"锦州湾机场","icao":"ZYJZ","iata":"JNZ","status":0,"enable_year":"2015","level":"4C","city_name":"锦州市、葫芦岛市、阜新市","location":{"type":"Point","coordinates":[121.28578,40.932802]}},{"name":"营口兰旗机场","icao":"ZYYK","iata":"YKH","status":0,"enable_year":"2016","level":"4C","city_name":"营口市","location":{"type":"Point","coordinates":[122.355928,40.543417]}},{"name":"大连长海机场","icao":"ZYCH","iata":"CNI","status":0,"enable_year":"1988","level":"1B","city_name":"长海县","location":{"type":"Point","coordinates":[122.670287,39.268142]}},{"name":"大连金州湾国际机场","icao":"","iata":"","status":2,"enable_year":"","level":"4F","city_name":"大连市","location":{"type":"Point","coordinates":[121.612506,39.115978]}},{"name":"桓仁机场","icao":"","iata":"","status":1,"enable_year":"","level":"","city_name":"桓仁满族自治县"},{"name":"长春龙嘉国际机场","icao":"ZYCC","iata":"CGQ","status":0,"enable_year":"2005","level":"4E","city_name":"长春市、吉林市","location":{"type":"Point","coordinates":[125.68528,43.99611]}},{"name":"延吉朝阳川国际机场","icao":"ZYYJ","iata":"YNJ","status":0,"enable_year":"1985","level":"4C","city_name":"延边朝鲜族自治州","location":{"type":"Point","coordinates":[129.446647,42.887804]}},{"name":"长白山机场","icao":"ZYBS","iata":"NBS","status":0,"enable_year":"2008","level":"4C","city_name":"抚松县","location":{"type":"Point","coordinates":[127.613181,42.066713]}},{"name":"通化三源浦机场","icao":"ZYTN","iata":"TNH","status":0,"enable_year":"2014","level":"4C","city_name":"通化市","location":{"type":"Point","coordinates":[125.749459,42.053853]}},{"name":"白城长安机场","icao":"ZYBA","iata":"DBC","status":0,"enable_year":"2017","level":"4C","city_name":"白城市","location":{"type":"Point","coordinates":[123.021134,45.509798]}},{"name":"松原查干湖机场","icao":"ZYSQ","iata":"YSQ","status":0,"enable_year":"2017","level":"4C","city_name":"松原市","location":{"type":"Point","coordinates":[124.557061,44.940299]}},{"name":"白山机场","icao":"","iata":"","status":1,"enable_year":"","level":"","city_name":"白山市"},{"name":"敦化机场","icao":"","iata":"","status":1,"enable_year":"","level":"","city_name":"敦化市"},{"name":"珲春机场","icao":"","iata":"","status":1,"enable_year":"","level":"","city_name":"珲春市"},{"name":"辽源机场","icao":"","iata":"","status":1,"enable_year":"","level":"","city_name":"辽源市"},{"name":"四平机场","icao":"","iata":"","status":1,"enable_year":"","level":"","city_name":"四平市"},{"name":"通榆机场","icao":"","iata":"","status":1,"enable_year":"","level":"","city_name":"通榆县"},{"name":"延吉新机场","icao":"","iata":"","status":1,"enable_year":"","level":"","city_name":"延边朝鲜族自治州"},{"name":"榆树机场","icao":"","iata":"","status":1,"enable_year":"","level":"","city_name":"榆树市、五常市、\n德惠市、舒兰市、扶余市"},{"name":"哈尔滨太平国际机场","icao":"ZYHB","iata":"HRB","status":0,"enable_year":"1979","level":"4E","city_name":"哈尔滨市","location":{"type":"Point","coordinates":[126.25028,45.62333]}},{"name":"佳木斯东郊机场","icao":"ZYJM","iata":"JMU","status":0,"enable_year":"1958","level":"4C","city_name":"佳木斯市","location":{"type":"Point","coordinates":[130.464122,46.84685]}},{"name":"黑河瑷珲机场","icao":"ZYHE","iata":"HEK","status":0,"enable_year":"1985","level":"4C","city_name":"黑河市","location":{"type":"Point","coordinates":[127.319621,50.17938]}},{"name":"牡丹江海浪国际机场","icao":"ZYMD","iata":"MDG","status":0,"enable_year":"1985","level":"4C","city_name":"牡丹江市","location":{"type":"Point","coordinates":[129.588356,44.537158]}},{"name":"齐齐哈尔三家子机场","icao":"ZYQQ","iata":"NDG","status":0,"enable_year":"1987","level":"4C","city_name":"齐齐哈尔市","location":{"type":"Point","coordinates":[123.923863,47.254025]}},{"name":"漠河古莲机场","icao":"ZYMH","iata":"OHE","status":0,"enable_year":"2008","level":"4C","city_name":"漠河县","location":{"type":"Point","coordinates":[122.426757,52.925861]}},{"name":"伊春林都机场","icao":"ZYLD","iata":"LDS","status":0,"enable_year":"2009","level":"4C","city_name":"伊春市","location":{"type":"Point","coordinates":[129.022886,47.751563]}},{"name":"大庆萨尔图机场","icao":"ZYDQ","iata":"DQA","status":0,"enable_year":"2009","level":"4C","city_name":"大庆市","location":{"type":"Point","coordinates":[125.139642,46.74879]}},{"name":"鸡西兴凯湖机场","icao":"ZYJX","iata":"JXA","status":0,"enable_year":"2009","level":"4C","city_name":"鸡西市","location":{"type":"Point","coordinates":[131.186331,45.30263]}},{"name":"加格达奇机场","icao":"ZYJD","iata":"JGD","status":0,"enable_year":"2012","level":"4C","city_name":"大兴安岭地区","location":{"type":"Point","coordinates":[124.118649,50.375039]}},{"name":"抚远东极机场","icao":"ZYFY","iata":"FYJ","status":0,"enable_year":"2014","level":"4C","city_name":"抚远市","location":{"type":"Point","coordinates":[134.375221,48.203187]}},{"name":"建三江湿地机场","icao":"ZYJS","iata":"JSJ","status":0,"enable_year":"2017","level":"4C","city_name":"同江市、富锦市","location":{"type":"Point","coordinates":[132.668028,47.108493]}},{"name":"五大连池德都机场","icao":"ZYDU","iata":"DTU","status":0,"enable_year":"2017","level":"4C","city_name":"五大连池市","location":{"type":"Point","coordinates":[126.131482,48.447149]}},{"name":"鹤岗机场","icao":"","iata":"","status":1,"enable_year":"","level":"","city_name":"鹤岗市"},{"name":"虎林机场","icao":"","iata":"","status":1,"enable_year":"","level":"","city_name":"虎林市"},{"name":"牡丹江大岭国际机场","icao":"","iata":"","status":1,"enable_year":"","level":"","city_name":"牡丹江市"},{"name":"饶河机场","icao":"","iata":"","status":1,"enable_year":"","level":"","city_name":"饶河县"},{"name":"尚志亚布力机场","icao":"","iata":"","status":1,"enable_year":"","level":"","city_name":"尚志市"},{"name":"绥芬河机场","icao":"","iata":"","status":1,"enable_year":"","level":"","city_name":"绥芬河市"},{"name":"上海虹桥国际机场","icao":"ZSSS","iata":"SHA","status":0,"enable_year":"1929","level":"4E","city_name":"上海市","location":{"type":"Point","coordinates":[121.33639,31.19806]}},{"name":"上海浦东国际机场","icao":"ZSPD","iata":"PVG","status":0,"enable_year":"1999","level":"4F","city_name":"上海市","location":{"type":"Point","coordinates":[121.80528,31.14333]}},{"name":"南京禄口国际机场","icao":"ZSNJ","iata":"NKG","status":0,"enable_year":"1997","level":"4F","city_name":"南京市","location":{"type":"Point","coordinates":[118.86194,31.74222]}},{"name":"常州奔牛国际机场","icao":"ZSCG","iata":"CZX","status":0,"enable_year":"1986","level":"4E","city_name":"常州市","location":{"type":"Point","coordinates":[119.787148,31.911012]}},{"name":"南通兴东国际机场","icao":"ZSNT","iata":"NTG","status":0,"enable_year":"1993","level":"4E","city_name":"南通市","location":{"type":"Point","coordinates":[120.980396,32.072036]}},{"name":"苏南硕放国际机场","icao":"ZSWX","iata":"WUX","status":0,"enable_year":"2004","level":"4E","city_name":"无锡市、苏州市","location":{"type":"Point","coordinates":[120.433763,31.505382]}},{"name":"扬州泰州国际机场","icao":"ZSYA","iata":"YTY","status":0,"enable_year":"2012","level":"4E","city_name":"扬州市、泰州市","location":{"type":"Point","coordinates":[119.718872,32.560673]}},{"name":"连云港白塔埠机场","icao":"ZSLG","iata":"LYG","status":0,"enable_year":"1985","level":"4D","city_name":"连云港市","location":{"type":"Point","coordinates":[118.881765,34.564882]}},{"name":"徐州观音国际机场","icao":"ZSXZ","iata":"XUZ","status":0,"enable_year":"1997","level":"4D","city_name":"徐州市","location":{"type":"Point","coordinates":[117.560369,34.053631]}},{"name":"盐城南洋国际机场","icao":"ZSYN","iata":"YNZ","status":0,"enable_year":"2000","level":"4C","city_name":"盐城市","location":{"type":"Point","coordinates":[120.208595,33.430043]}},{"name":"淮安涟水国际机场","icao":"ZSSH","iata":"HIA","status":0,"enable_year":"2010","level":"4C","city_name":"淮安市","location":{"type":"Point","coordinates":[119.134962,33.787438]}},{"name":"连云港花果山国际机场","icao":"","iata":"","status":2,"enable_year":"","level":"4D","city_name":"连云港市"},{"name":"南通新机场","icao":"","iata":"","status":1,"enable_year":"","level":"4F","city_name":"南通市、上海市"},{"name":"杭州萧山国际机场","icao":"ZSHC","iata":"HGH","status":0,"enable_year":"2000","level":"4F","city_name":"杭州市","location":{"type":"Point","coordinates":[120.43444,30.22944]}},{"name":"宁波栎社国际机场","icao":"ZSNB","iata":"NGB","status":0,"enable_year":"1990","level":"4E","city_name":"宁波市","location":{"type":"Point","coordinates":[121.466325,29.818948]}},{"name":"温州龙湾国际机场","icao":"ZSWZ","iata":"WNZ","status":0,"enable_year":"1990","level":"4E","city_name":"温州市","location":{"type":"Point","coordinates":[120.852353,27.912995]}},{"name":"舟山普陀山机场","icao":"ZSZS","iata":"HSN","status":0,"enable_year":"1997","level":"4D","city_name":"舟山市","location":{"type":"Point","coordinates":[122.361813,29.933802]}},{"name":"台州路桥机场","icao":"ZSLQ","iata":"HYN","status":0,"enable_year":"1987","level":"4C","city_name":"台州市","location":{"type":"Point","coordinates":[121.421933,28.555434]}},{"name":"义乌机场","icao":"ZSYW","iata":"YIW","status":0,"enable_year":"1991","level":"4C","city_name":"金华市","location":{"type":"Point","coordinates":[120.032606,29.340682]}},{"name":"衢州机场","icao":"ZSJU","iata":"JUZ","status":0,"enable_year":"1993","level":"4C","city_name":"衢州市","location":{"type":"Point","coordinates":[118.901255,28.96788]}},{"name":"丽水机场","icao":"","iata":"","status":2,"enable_year":"预计2022","level":"4C","city_name":"丽水市","location":{"type":"Point","coordinates":[119.838391,28.368468]}},{"name":"嘉兴洪合机场","icao":"","iata":"","status":1,"enable_year":"","level":"","city_name":"嘉兴市","location":{"type":"Point","coordinates":[120.684022,30.703159]}},{"name":"合肥新桥国际机场","icao":"ZSOF","iata":"HFE","status":0,"enable_year":"2013","level":"4E","city_name":"合肥市","location":{"type":"Point","coordinates":[116.98917,31.99111]}},{"name":"黄山屯溪国际机场","icao":"ZSTX","iata":"TXN","status":0,"enable_year":"1959","level":"4D","city_name":"黄山市","location":{"type":"Point","coordinates":[118.259322,29.727843]}},{"name":"阜阳西关机场","icao":"ZSFY","iata":"FUG","status":0,"enable_year":"1958","level":"4C","city_name":"阜阳市","location":{"type":"Point","coordinates":[115.74377,32.877166]}},{"name":"安庆天柱山机场","icao":"ZSAQ","iata":"AQG","status":0,"enable_year":"1993","level":"4C","city_name":"安庆市","location":{"type":"Point","coordinates":[117.052473,30.583083]}},{"name":"池州九华山机场","icao":"ZSJH","iata":"JUH","status":0,"enable_year":"2013","level":"4C","city_name":"池州市","location":{"type":"Point","coordinates":[117.688587,30.736248]}},{"name":"芜湖宣州机场","icao":"","iata":"","status":2,"enable_year":"","level":"4C","city_name":"芜湖市、宣城市","location":{"type":"Point","coordinates":[118.65534,31.097805]}},{"name":"安庆怀宁机场","icao":"","iata":"","status":1,"enable_year":"","level":"","city_name":"安庆市"},{"name":"蚌埠滕湖机场","icao":"ZSBB","iata":"BFU","status":1,"enable_year":"","level":"","city_name":"蚌埠市"},{"name":"亳州机场","icao":"","iata":"","status":1,"enable_year":"","level":"","city_name":"亳州市"},{"name":"滁州琅琊机场","icao":"","iata":"","status":1,"enable_year":"","level":"","city_name":"滁州市"},{"name":"金寨机场","icao":"","iata":"","status":1,"enable_year":"","level":"","city_name":"六安市"},{"name":"宿州机场","icao":"","iata":"","status":1,"enable_year":"","level":"","city_name":"宿州市、淮北市"},{"name":"厦门高崎国际机场","icao":"ZSAM","iata":"XMN","status":0,"enable_year":"1983","level":"4E","city_name":"厦门市","location":{"type":"Point","coordinates":[118.131857,24.534466]}},{"name":"福州长乐国际机场","icao":"ZSFZ","iata":"FOC","status":0,"enable_year":"1997","level":"4E","city_name":"福州市","location":{"type":"Point","coordinates":[119.66306,25.935]}},{"name":"泉州晋江国际机场","icao":"ZSQZ","iata":"JJN","status":0,"enable_year":"1980","level":"4D","city_name":"泉州市","location":{"type":"Point","coordinates":[118.592905,24.800571]}},{"name":"武夷山机场","icao":"ZSWY","iata":"WUS","status":0,"enable_year":"1994","level":"4C","city_name":"武夷山市","location":{"type":"Point","coordinates":[118.005088,27.705169]}},{"name":"龙岩冠豸山机场","icao":"ZSLO","iata":"LCX","status":0,"enable_year":"2004","level":"4C","city_name":"龙岩市","location":{"type":"Point","coordinates":[116.759033,25.678995]}},{"name":"三明沙县机场","icao":"ZSSM","iata":"SQJ","status":0,"enable_year":"2016","level":"4C","city_name":"三明市、南平市","location":{"type":"Point","coordinates":[117.843988,26.421954]}},{"name":"厦门翔安国际机场","icao":"","iata":"","status":2,"enable_year":"","level":"","city_name":"厦门市","location":{"type":"Point","coordinates":[118.353142,24.559367]}},{"name":"宁德机场","icao":"","iata":"","status":1,"enable_year":"","level":"","city_name":"宁德市"},{"name":"莆田机场","icao":"","iata":"","status":1,"enable_year":"","level":"","city_name":"莆田市"},{"name":"武夷山新机场","icao":"","iata":"","status":1,"enable_year":"","level":"","city_name":"武夷山市"},{"name":"漳州东山机场","icao":"","iata":"","status":1,"enable_year":"","level":"","city_name":"漳州市"},{"name":"南昌昌北国际机场","icao":"ZSCN","iata":"KHN","status":0,"enable_year":"1999","level":"4E","city_name":"南昌市","location":{"type":"Point","coordinates":[115.90556,28.86167]}},{"name":"景德镇罗家机场","icao":"ZSJD","iata":"JDZ","status":0,"enable_year":"1959","level":"4C","city_name":"景德镇市","location":{"type":"Point","coordinates":[117.184321,29.334459]}},{"name":"吉安井冈山机场","icao":"ZSGS","iata":"JGS","status":0,"enable_year":"2004","level":"4C","city_name":"吉安市","location":{"type":"Point","coordinates":[114.747858,26.851223]}},{"name":"赣州黄金机场","icao":"ZSGZ","iata":"KOW","status":0,"enable_year":"2008","level":"4C","city_name":"赣州市","location":{"type":"Point","coordinates":[114.783451,25.84606]}},{"name":"宜春明月山机场","icao":"ZSYC","iata":"YIC","status":0,"enable_year":"2013","level":"4C","city_name":"宜春市、新余市、萍乡市","location":{"type":"Point","coordinates":[114.315529,27.797414]}},{"name":"上饶三清山机场","icao":"ZSSR","iata":"SQD","status":0,"enable_year":"2017","level":"4C","city_name":"上饶市","location":{"type":"Point","coordinates":[117.969385,28.380734]}},{"name":"抚州机场","icao":"","iata":"","status":1,"enable_year":"","level":"","city_name":"抚州市"},{"name":"瑞金机场","icao":"","iata":"","status":1,"enable_year":"","level":"","city_name":"瑞金市"},{"name":"青岛流亭国际机场","icao":"ZSQD","iata":"TAO","status":0,"enable_year":"1982","level":"4E","city_name":"青岛市","location":{"type":"Point","coordinates":[120.386034,36.26698]}},{"name":"济南遥墙国际机场","icao":"ZSJN","iata":"TNA","status":0,"enable_year":"1992","level":"4E","city_name":"济南市","location":{"type":"Point","coordinates":[117.21611,36.85722]}},{"name":"烟台蓬莱国际机场","icao":"ZSYT","iata":"YNT","status":0,"enable_year":"2015","level":"4E","city_name":"烟台市","location":{"type":"Point","coordinates":[120.991373,37.658626]}},{"name":"临沂启阳国际机场","icao":"ZSLY","iata":"LYI","status":0,"enable_year":"1958","level":"4D","city_name":"临沂市","location":{"type":"Point","coordinates":[118.413303,35.047971]}},{"name":"威海大水泊国际机场","icao":"ZSWH","iata":"WEH","status":0,"enable_year":"1996","level":"4D","city_name":"威海市","location":{"type":"Point","coordinates":[122.240342,37.189564]}},{"name":"潍坊南苑机场","icao":"ZSWF","iata":"WEF","status":0,"enable_year":"1996","level":"4D","city_name":"潍坊市","location":{"type":"Point","coordinates":[119.120047,36.641503]}},{"name":"东营胜利机场","icao":"ZSDY","iata":"DOY","status":0,"enable_year":"2001","level":"4D","city_name":"东营市","location":{"type":"Point","coordinates":[118.789376,37.50566]}},{"name":"济宁曲阜机场","icao":"ZSJG","iata":"JNG","status":0,"enable_year":"2008","level":"4C","city_name":"济宁市","location":{"type":"Point","coordinates":[116.356532,35.297228]}},{"name":"日照山字河机场","icao":"ZSRZ","iata":"RIZ","status":0,"enable_year":"2015","level":"4C","city_name":"日照市","location":{"type":"Point","coordinates":[119.346498,35.396299]}},{"name":"青岛胶东国际机场","icao":"","iata":"","status":2,"enable_year":"","level":"4F","city_name":"青岛市","location":{"type":"Point","coordinates":[120.092791,36.363658]}},{"name":"菏泽牡丹机场","icao":"","iata":"","status":2,"enable_year":"","level":"","city_name":"菏泽市","location":{"type":"Point","coordinates":[115.73745,35.215187]}},{"name":"济宁新机场","icao":"","iata":"","status":1,"enable_year":"","level":"","city_name":"济宁市"},{"name":"聊城机场","icao":"","iata":"","status":1,"enable_year":"","level":"","city_name":"聊城市"},{"name":"潍坊新机场","icao":"","iata":"","status":1,"enable_year":"","level":"","city_name":"潍坊市"},{"name":"枣庄机场","icao":"","iata":"","status":1,"enable_year":"","level":"","city_name":"枣庄市"},{"name":"郑州新郑国际机场","icao":"ZHCC","iata":"CGO","status":0,"enable_year":"1997","level":"4F","city_name":"郑州市、开封市","location":{"type":"Point","coordinates":[113.84083,34.51972]}},{"name":"洛阳北郊机场","icao":"ZHLY","iata":"LYA","status":0,"enable_year":"1987","level":"4D","city_name":"洛阳市","location":{"type":"Point","coordinates":[112.392757,34.736062]}},{"name":"南阳姜营机场","icao":"ZHNY","iata":"NNY","status":0,"enable_year":"1992","level":"4D","city_name":"南阳市","location":{"type":"Point","coordinates":[112.619676,32.981893]}},{"name":"信阳明港机场","icao":"ZHXY","iata":"XAI","status":0,"enable_year":"2018","level":"4C","city_name":"信阳市","location":{"type":"Point","coordinates":[114.044,32.321893]}},{"name":"安阳豫东北机场","icao":"","iata":"","status":2,"enable_year":"","level":"","city_name":"安阳市、鹤壁市、濮阳市","location":{"type":"Point","coordinates":[114.47493,35.868016]}},{"name":"商丘机场","icao":"","iata":"","status":2,"enable_year":"","level":"","city_name":"商丘市","location":{"type":"Point","coordinates":[115.465111,34.44845]}},{"name":"平顶山鲁山机场","icao":"","iata":"","status":1,"enable_year":"","level":"","city_name":"平顶山市"},{"name":"武汉天河国际机场","icao":"ZHHH","iata":"WUH","status":0,"enable_year":"1995","level":"4F","city_name":"武汉城市圈","location":{"type":"Point","coordinates":[114.20806,30.78361]}},{"name":"襄阳刘集机场","icao":"ZHXF","iata":"XFN","status":0,"enable_year":"1989","level":"4D","city_name":"襄阳市","location":{"type":"Point","coordinates":[112.292554,32.149432]}},{"name":"宜昌三峡机场","icao":"ZHYC","iata":"YIH","status":0,"enable_year":"1996","level":"4D","city_name":"宜昌市","location":{"type":"Point","coordinates":[111.485448,30.547628]}},{"name":"恩施许家坪机场","icao":"ZHES","iata":"ENH","status":0,"enable_year":"1993","level":"4C","city_name":"恩施土家族苗族自治州","location":{"type":"Point","coordinates":[109.487343,30.320632]}},{"name":"神农架红坪机场","icao":"ZHSN","iata":"HPG","status":0,"enable_year":"2014","level":"4C","city_name":"神农架林区","location":{"type":"Point","coordinates":[110.3435,31.618481]}},{"name":"十堰武当山机场","icao":"ZHSY","iata":"WDS","status":0,"enable_year":"2016","level":"4C","city_name":"十堰市","location":{"type":"Point","coordinates":[110.910438,32.587102]}},{"name":"鄂州机场","icao":"","iata":"","status":2,"enable_year":"","level":"","city_name":"武汉市、鄂州市、\n黄石市、黄冈市"},{"name":"荆州机场","icao":"","iata":"","status":2,"enable_year":"","level":"","city_name":"荆州市"},{"name":"长沙黄花国际机场","icao":"ZGHA","iata":"CSX","status":0,"enable_year":"1989","level":"4F","city_name":"长株潭城市群","location":{"type":"Point","coordinates":[113.22083,28.19667]}},{"name":"常德桃花源机场","icao":"ZGCD","iata":"CGD","status":0,"enable_year":"1964","level":"4D","city_name":"常德市","location":{"type":"Point","coordinates":[111.63924,28.917754]}},{"name":"张家界荷花国际机场","icao":"ZGDY","iata":"DYG","status":0,"enable_year":"1994","level":"4D","city_name":"张家界市","location":{"type":"Point","coordinates":[110.450668,29.103839]}},{"name":"永州零陵机场","icao":"ZGLG","iata":"LLF","status":0,"enable_year":"2001","level":"4C","city_name":"永州市","location":{"type":"Point","coordinates":[111.617758,26.341101]}},{"name":"怀化芷江机场","icao":"ZGCJ","iata":"HJJ","status":0,"enable_year":"2005","level":"4C","city_name":"怀化市","location":{"type":"Point","coordinates":[109.705284,27.44089]}},{"name":"衡阳南岳机场","icao":"ZGHY","iata":"HNY","status":0,"enable_year":"2014","level":"4C","city_name":"衡阳市","location":{"type":"Point","coordinates":[112.619841,26.721128]}},{"name":"邵阳武冈机场","icao":"ZGSY","iata":"WGN","status":0,"enable_year":"2017","level":"4C","city_name":"邵阳市","location":{"type":"Point","coordinates":[110.64111,26.79694]}},{"name":"岳阳三荷机场","icao":"ZGYY","iata":"YYA","status":0,"enable_year":"2018","level":"4C","city_name":"岳阳市","location":{"type":"Point","coordinates":[113.27778,29.31361]}},{"name":"郴州北湖机场","icao":"","iata":"","status":2,"enable_year":"","level":"4C","city_name":"郴州市"},{"name":"邵阳邵东机场","icao":"","iata":"","status":2,"enable_year":"","level":"","city_name":"邵阳市","location":{"type":"Point","coordinates":[111.66934,27.216024]}},{"name":"娄底新化机场","icao":"","iata":"","status":1,"enable_year":"","level":"","city_name":"娄底市"},{"name":"湘西里耶机场","icao":"","iata":"","status":1,"enable_year":"","level":"","city_name":"湘西土家族苗族自治州"},{"name":"永州新机场","icao":"","iata":"","status":1,"enable_year":"","level":"","city_name":"永州市"},{"name":"深圳宝安国际机场","icao":"ZGSZ","iata":"SZX","status":0,"enable_year":"1991","level":"4F","city_name":"深圳市","location":{"type":"Point","coordinates":[113.812596,22.626012]}},{"name":"广州白云国际机场","icao":"ZGGG","iata":"CAN","status":0,"enable_year":"2004","level":"4F","city_name":"广州市","location":{"type":"Point","coordinates":[113.29889,23.3925]}},{"name":"珠海金湾机场","icao":"ZGSD","iata":"ZUH","status":0,"enable_year":"1995","level":"4E","city_name":"珠海市","location":{"type":"Point","coordinates":[113.377082,22.00881]}},{"name":"揭阳潮汕国际机场","icao":"ZGOW","iata":"SWA","status":0,"enable_year":"2011","level":"4E","city_name":"揭阳市、潮州市、汕头市","location":{"type":"Point","coordinates":[116.514481,23.546973]}},{"name":"湛江坡头机场","icao":"ZGZJ","iata":"ZHA","status":0,"enable_year":"1952","level":"4D","city_name":"湛江市","location":{"type":"Point","coordinates":[110.366021,21.212072]}},{"name":"佛山沙堤机场","icao":"ZGFS","iata":"FUO","status":0,"enable_year":"1985","level":"4C","city_name":"佛山市","location":{"type":"Point","coordinates":[113.071602,23.068258]}},{"name":"惠州平潭机场","icao":"ZGHZ","iata":"HUZ","status":0,"enable_year":"1985","level":"4C","city_name":"惠州市","location":{"type":"Point","coordinates":[114.607158,23.049552]}},{"name":"梅县机场","icao":"ZGMX","iata":"MXZ","status":0,"enable_year":"1987","level":"4C","city_name":"梅州市","location":{"type":"Point","coordinates":[116.109123,24.263769]}},{"name":"湛江国际机场","icao":"","iata":"","status":2,"enable_year":"","level":"4E","city_name":"湛江市、茂名市"},{"name":"梅州新机场","icao":"","iata":"","status":1,"enable_year":"","level":"","city_name":"梅州市"},{"name":"韶关桂头机场","icao":"","iata":"HSC","status":1,"enable_year":"","level":"","city_name":"韶关市","location":{"type":"Point","coordinates":[113.426942,24.973879]}},{"name":"南宁吴圩国际机场","icao":"ZGNN","iata":"NNG","status":0,"enable_year":"1962","level":"4E","city_name":"南宁市","location":{"type":"Point","coordinates":[108.18333,22.60417]}},{"name":"桂林两江国际机场","icao":"ZGKL","iata":"KWL","status":0,"enable_year":"1996","level":"4E","city_name":"桂林市","location":{"type":"Point","coordinates":[110.051379,25.214953]}},{"name":"北海福成机场","icao":"ZGBH","iata":"BHY","status":0,"enable_year":"1987","level":"4D","city_name":"北海市","location":{"type":"Point","coordinates":[109.292861,21.540517]}},{"name":"柳州白莲机场","icao":"ZGZH","iata":"LZH","status":0,"enable_year":"1994","level":"4D","city_name":"柳州市","location":{"type":"Point","coordinates":[109.402947,24.202868]}},{"name":"百色巴马机场","icao":"ZGBS","iata":"AEB","status":0,"enable_year":"2003","level":"4C","city_name":"百色市","location":{"type":"Point","coordinates":[106.971293,23.716489]}},{"name":"河池金城江机场","icao":"ZGHC","iata":"HCJ","status":0,"enable_year":"2014","level":"4C","city_name":"河池市","location":{"type":"Point","coordinates":[107.712027,24.806905]}},{"name":"梧州西江机场","icao":"ZGWZ","iata":"WUZ","status":0,"enable_year":"2019","level":"4C","city_name":"梧州市","location":{"type":"Point","coordinates":[111.10194,23.39944]}},{"name":"玉林福绵机场","icao":"ZGYL","iata":"YLX","status":0,"enable_year":"2020","level":"4C","city_name":"玉林市","location":{"type":"Point","coordinates":[110.11889,22.37389]}},{"name":"贺州机场","icao":"","iata":"","status":1,"enable_year":"","level":"","city_name":"贺州市"},{"name":"防城港钦州机场","icao":"","iata":"","status":1,"enable_year":"","level":"","city_name":"防城港市、钦州市"},{"name":"三亚凤凰国际机场","icao":"ZJSY","iata":"SYX","status":0,"enable_year":"1994","level":"4E","city_name":"三亚市","location":{"type":"Point","coordinates":[109.412429,18.307575]}},{"name":"海口美兰国际机场","icao":"ZJHK","iata":"HAK","status":0,"enable_year":"1999","level":"4E","city_name":"海口市","location":{"type":"Point","coordinates":[110.45889,19.93472]}},{"name":"琼海博鳌机场","icao":"ZJQH","iata":"BAR","status":0,"enable_year":"2016","level":"4C","city_name":"琼海市","location":{"type":"Point","coordinates":[110.463718,19.139202]}},{"name":"三沙永兴机场","icao":"ZJYX","iata":"YXG","status":0,"enable_year":"2016","level":"4C","city_name":"三沙市","location":{"type":"Point","coordinates":[112.33791,16.828315]}},{"name":"三沙永暑机场","icao":"","iata":"","status":2,"enable_year":"","level":"","city_name":"三沙市","location":{"type":"Point","coordinates":[112.897895,9.560365]}},{"name":"美济机场","icao":"","iata":"","status":2,"enable_year":"","level":"","city_name":"三沙市","location":{"type":"Point","coordinates":[115.543121,9.925515]}},{"name":"渚碧机场","icao":"","iata":"","status":2,"enable_year":"","level":"","city_name":"三沙市","location":{"type":"Point","coordinates":[114.073619,10.930633]}},{"name":"儋州机场","icao":"","iata":"","status":1,"enable_year":"","level":"","city_name":"儋州市"},{"name":"三亚红塘湾机场","icao":"","iata":"","status":1,"enable_year":"","level":"","city_name":"三亚市"},{"name":"重庆江北国际机场","icao":"ZUCK","iata":"CKG","status":0,"enable_year":"1990","level":"4F","city_name":"重庆主城区","location":{"type":"Point","coordinates":[106.64167,29.71917]}},{"name":"万州五桥机场","icao":"ZUWX","iata":"WXN","status":0,"enable_year":"2003","level":"4C","city_name":"万州区","location":{"type":"Point","coordinates":[108.431766,30.797725]}},{"name":"黔江武陵山机场","icao":"ZUQJ","iata":"JIQ","status":0,"enable_year":"2010","level":"4C","city_name":"黔江区","location":{"type":"Point","coordinates":[108.833812,29.514651]}},{"name":"重庆巫山机场","icao":"ZUWS","iata":"WSK","status":0,"enable_year":"2019","level":"4C","city_name":"巫山县、奉节县"},{"name":"武隆仙女山机场","icao":"","iata":"","status":0,"enable_year":"2020","level":"4C","city_name":"武隆区"},{"name":"成都双流国际机场","icao":"ZUUU","iata":"CTU","status":0,"enable_year":"1957","level":"4F","city_name":"成都市","location":{"type":"Point","coordinates":[103.94694,30.57833]}},{"name":"西昌青山机场","icao":"ZUXC","iata":"XIC","status":0,"enable_year":"1975","level":"4D","city_name":"凉山彝族自治州","location":{"type":"Point","coordinates":[102.189047,27.978562]}},{"name":"绵阳南郊机场","icao":"ZUMY","iata":"MIG","status":0,"enable_year":"2001","level":"4D","city_name":"绵阳市、德阳市","location":{"type":"Point","coordinates":[104.74977,31.425338]}},{"name":"九寨黄龙机场","icao":"ZUJZ","iata":"JZH","status":0,"enable_year":"2003","level":"4D","city_name":"九寨沟县、松潘县","location":{"type":"Point","coordinates":[103.688254,32.851428]}},{"name":"达州河市机场","icao":"ZUDX","iata":"DAX","status":0,"enable_year":"1960","level":"4C","city_name":"达州市","location":{"type":"Point","coordinates":[107.431369,31.129714]}},{"name":"广元盘龙机场","icao":"ZUGU","iata":"GYS","status":0,"enable_year":"2000","level":"4C","city_name":"广元市","location":{"type":"Point","coordinates":[105.704913,32.392369]}},{"name":"攀枝花保安营机场","icao":"ZUZH","iata":"PZI","status":0,"enable_year":"2003","level":"4C","city_name":"攀枝花市","location":{"type":"Point","coordinates":[101.79584,26.534875]}},{"name":"南充高坪机场","icao":"ZUNC","iata":"NAO","status":0,"enable_year":"2004","level":"4C","city_name":"南充市、广安市","location":{"type":"Point","coordinates":[106.165656,30.78834]}},{"name":"甘孜康定机场","icao":"ZUKD","iata":"KGT","status":0,"enable_year":"2008","level":"4C","city_name":"康定市","location":{"type":"Point","coordinates":[101.751964,30.129766]}},{"name":"稻城亚丁机场","icao":"ZUDC","iata":"DCY","status":0,"enable_year":"2013","level":"4C","city_name":"稻城县","location":{"type":"Point","coordinates":[100.066677,29.308884]}},{"name":"阿坝红原机场","icao":"ZUHY","iata":"AHJ","status":0,"enable_year":"2014","level":"4C","city_name":"红原县","location":{"type":"Point","coordinates":[102.359604,32.525311]}},{"name":"泸州云龙机场","icao":"ZULZ","iata":"LZO","status":0,"enable_year":"2018","level":"4C","city_name":"泸州市","location":{"type":"Point","coordinates":[105.46222,29.02389]}},{"name":"甘孜格萨尔机场","icao":"ZUGZ","iata":"GZG","status":0,"enable_year":"2019","level":"4C","city_name":"甘孜县、德格县、白玉县","location":{"type":"Point","coordinates":[99.587719,31.726335]}},{"name":"宜宾五粮液机场","icao":"ZUYB","iata":"YBP","status":0,"enable_year":"2019","level":"4C","city_name":"宜宾市","location":{"type":"Point","coordinates":[104.5325,28.85167]}},{"name":"巴中恩阳机场","icao":"ZUBZ","iata":"BZX","status":0,"enable_year":"2019","level":"4C","city_name":"巴中市","location":{"type":"Point","coordinates":[106.64694,31.74194]}},{"name":"成都天府国际机场","icao":"","iata":"","status":2,"enable_year":"预计2021","level":"4F","city_name":"成都市、简阳市","location":{"type":"Point","coordinates":[104.44806,30.32417]}},{"name":"阆中机场","icao":"","iata":"","status":2,"enable_year":"","level":"","city_name":"阆中市","location":{"type":"Point","coordinates":[106.02806,31.49667]}},{"name":"达州百节机场","icao":"","iata":"","status":1,"enable_year":"","level":"","city_name":"达州市"},{"name":"乐山机场","icao":"","iata":"","status":1,"enable_year":"","level":"","city_name":"乐山市"},{"name":"贵阳龙洞堡国际机场","icao":"ZUGY","iata":"KWE","status":0,"enable_year":"1997","level":"4E","city_name":"贵阳市","location":{"type":"Point","coordinates":[106.80083,26.53861]}},{"name":"铜仁凤凰机场","icao":"ZUTR","iata":"TEN","status":0,"enable_year":"1972","level":"4C","city_name":"铜仁市、凤凰县","location":{"type":"Point","coordinates":[109.31047,27.881844]}},{"name":"兴义万峰林机场","icao":"ZUYI","iata":"ACX","status":0,"enable_year":"2004","level":"4C","city_name":"黔西南布依族苗族自治州","location":{"type":"Point","coordinates":[104.959416,25.081107]}},{"name":"黎平机场","icao":"ZUNP","iata":"HZH","status":0,"enable_year":"2005","level":"4C","city_name":"黎平县","location":{"type":"Point","coordinates":[109.158237,26.317205]}},{"name":"安顺黄果树机场","icao":"ZUAS","iata":"AVA","status":0,"enable_year":"2006","level":"4C","city_name":"安顺市","location":{"type":"Point","coordinates":[105.876597,26.254107]}},{"name":"荔波机场","icao":"ZULB","iata":"LLB","status":0,"enable_year":"2007","level":"4C","city_name":"荔波县","location":{"type":"Point","coordinates":[107.967417,25.443702]}},{"name":"遵义新舟机场","icao":"ZUZY","iata":"ZYI","status":0,"enable_year":"2012","level":"4C","city_name":"遵义市","location":{"type":"Point","coordinates":[107.253366,27.800011]}},{"name":"毕节飞雄机场","icao":"ZUBJ","iata":"BFJ","status":0,"enable_year":"2013","level":"4C","city_name":"毕节市","location":{"type":"Point","coordinates":[105.483092,27.261756]}},{"name":"凯里黄平机场","icao":"ZUKJ","iata":"KJH","status":0,"enable_year":"2013","level":"4C","city_name":"黔东南苗族侗族自治州","location":{"type":"Point","coordinates":[107.990799,26.972581]}},{"name":"六盘水月照机场","icao":"ZUPS","iata":"LPF","status":0,"enable_year":"2014","level":"4C","city_name":"六盘水市","location":{"type":"Point","coordinates":[104.97289,26.602553]}},{"name":"遵义茅台机场","icao":"ZUMT","iata":"WMT","status":0,"enable_year":"2017","level":"4C","city_name":"遵义市","location":{"type":"Point","coordinates":[106.440079,27.962816]}},{"name":"德江黔北机场","icao":"","iata":"","status":1,"enable_year":"","level":"","city_name":"德江县"},{"name":"罗甸机场","icao":"","iata":"","status":1,"enable_year":"","level":"","city_name":"罗甸县"},{"name":"盘州机场","icao":"","iata":"","status":1,"enable_year":"","level":"","city_name":"盘州市"},{"name":"威宁草海机场","icao":"","iata":"","status":1,"enable_year":"","level":"","city_name":"威宁彝族回族苗族自治县"},{"name":"昆明长水国际机场","icao":"ZPPP","iata":"KMG","status":0,"enable_year":"2012","level":"4F","city_name":"昆明市","location":{"type":"Point","coordinates":[102.92667,25.09917]}},{"name":"西双版纳嘎洒国际机场","icao":"ZPJH","iata":"JHG","status":0,"enable_year":"1990","level":"4D","city_name":"西双版纳傣族自治州","location":{"type":"Point","coordinates":[100.766551,21.974653]}},{"name":"丽江三义国际机场","icao":"ZPLJ","iata":"LJG","status":0,"enable_year":"1995","level":"4D","city_name":"丽江市","location":{"type":"Point","coordinates":[100.248134,26.666314]}},{"name":"迪庆香格里拉机场","icao":"ZPDQ","iata":"DIG","status":0,"enable_year":"1999","level":"4D","city_name":"迪庆藏族自治州","location":{"type":"Point","coordinates":[99.682651,27.79322]}},{"name":"保山云瑞机场","icao":"ZPBS","iata":"BSD","status":0,"enable_year":"1958","level":"4C","city_name":"保山市","location":{"type":"Point","coordinates":[99.165552,25.051641]}},{"name":"昭通机场","icao":"ZPZT","iata":"ZAT","status":0,"enable_year":"1961","level":"4C","city_name":"昭通市","location":{"type":"Point","coordinates":[103.754607,27.324366]}},{"name":"普洱思茅机场","icao":"ZPSM","iata":"SYM","status":0,"enable_year":"1961","level":"4C","city_name":"普洱市","location":{"type":"Point","coordinates":[100.963006,22.793491]}},{"name":"德宏芒市机场","icao":"ZPMS","iata":"LUM","status":0,"enable_year":"1990","level":"4C","city_name":"德宏傣族景颇族自治州","location":{"type":"Point","coordinates":[98.531626,24.402025]}},{"name":"大理机场","icao":"ZPDL","iata":"DLU","status":0,"enable_year":"1995","level":"4C","city_name":"大理白族自治州","location":{"type":"Point","coordinates":[100.32341,25.646787]}},{"name":"临沧博尚机场","icao":"ZPLC","iata":"LNJ","status":0,"enable_year":"2001","level":"4C","city_name":"临沧市","location":{"type":"Point","coordinates":[100.026421,23.741348]}},{"name":"文山普者黑机场","icao":"ZPWS","iata":"WNH","status":0,"enable_year":"2006","level":"4C","city_name":"文山壮族苗族自治州","location":{"type":"Point","coordinates":[104.333956,23.563464]}},{"name":"腾冲驼峰机场","icao":"ZUTC","iata":"TCZ","status":0,"enable_year":"2009","level":"4C","city_name":"腾冲市","location":{"type":"Point","coordinates":[98.48299,24.936651]}},{"name":"宁蒗泸沽湖机场","icao":"ZPNL","iata":"NLH","status":0,"enable_year":"2015","level":"4C","city_name":"宁蒗彝族自治县","location":{"type":"Point","coordinates":[100.75861,27.54361]}},{"name":"沧源佤山机场","icao":"ZPCW","iata":"CWJ","status":0,"enable_year":"2016","level":"4C","city_name":"沧源佤族自治县","location":{"type":"Point","coordinates":[99.36548,23.267482]}},{"name":"澜沧景迈机场","icao":"ZPJM","iata":"JMJ","status":0,"enable_year":"2017","level":"4C","city_name":"澜沧拉祜族自治县","location":{"type":"Point","coordinates":[99.789619,22.412585]}},{"name":"红河蒙自机场","icao":"","iata":"","status":2,"enable_year":"","level":"","city_name":"红河哈尼族彝族自治州"},{"name":"哈尼梯田机场","icao":"","iata":"","status":1,"enable_year":"","level":"","city_name":"元阳县"},{"name":"勐腊机场","icao":"","iata":"","status":1,"enable_year":"","level":"","city_name":"勐腊县"},{"name":"怒江机场","icao":"","iata":"","status":1,"enable_year":"","level":"","city_name":"怒江傈僳族自治州"},{"name":"丘北机场","icao":"","iata":"","status":1,"enable_year":"","level":"","city_name":"丘北县"},{"name":"宣威机场","icao":"","iata":"","status":1,"enable_year":"","level":"","city_name":"宣威市"},{"name":"昭通花鹿坪机场","icao":"","iata":"","status":1,"enable_year":"","level":"","city_name":"昭通市"},{"name":"拉萨贡嘎机场","icao":"ZULS","iata":"LXA","status":0,"enable_year":"1966","level":"4E","city_name":"拉萨市、山南市","location":{"type":"Point","coordinates":[90.91194,29.29778]}},{"name":"昌都邦达机场","icao":"ZUBD","iata":"BPX","status":0,"enable_year":"1995","level":"4D","city_name":"昌都市","location":{"type":"Point","coordinates":[97.107874,30.548558]}},{"name":"阿里昆莎机场","icao":"ZUAL","iata":"NGQ","status":0,"enable_year":"2010","level":"4D","city_name":"阿里地区","location":{"type":"Point","coordinates":[80.058164,32.102107]}},{"name":"林芝米林机场","icao":"ZUNZ","iata":"LZY","status":0,"enable_year":"2006","level":"4C","city_name":"林芝市","location":{"type":"Point","coordinates":[94.337227,29.305973]}},{"name":"日喀则和平机场","icao":"ZURK","iata":"RKZ","status":0,"enable_year":"2010","level":"4C","city_name":"日喀则市","location":{"type":"Point","coordinates":[89.300592,29.34624]}},{"name":"拉萨林周机场","icao":"","iata":"","status":1,"enable_year":"","level":"","city_name":"拉萨市"},{"name":"阿里普兰机场","icao":"","iata":"","status":1,"enable_year":"","level":"","city_name":"普兰县"},{"name":"日喀则定日机场","icao":"","iata":"","status":1,"enable_year":"","level":"","city_name":"定日县"},{"name":"山南隆子机场","icao":"","iata":"","status":1,"enable_year":"","level":"","city_name":"隆子县"},{"name":"亚东机场","icao":"","iata":"","status":1,"enable_year":"","level":"","city_name":"亚东县"},{"name":"西安咸阳国际机场","icao":"ZLXY","iata":"XIY","status":0,"enable_year":"1991","level":"4F","city_name":"西安市、咸阳市","location":{"type":"Point","coordinates":[108.75167,34.44722]}},{"name":"榆林榆阳机场","icao":"ZLYL","iata":"UYN","status":0,"enable_year":"2008","level":"4C","city_name":"榆林市","location":{"type":"Point","coordinates":[109.602221,38.361933]}},{"name":"汉中城固机场","icao":"ZLHZ","iata":"HZG","status":0,"enable_year":"2014","level":"4C","city_name":"汉中市","location":{"type":"Point","coordinates":[107.200405,33.124593]}},{"name":"延安南泥湾机场","icao":"ZLYA","iata":"ENY","status":0,"enable_year":"2018","level":"4C","city_name":"延安市","location":{"type":"Point","coordinates":[109.4675,36.4825]}},{"name":"安康富强机场","icao":"ZLAK","iata":"AKA","status":0,"enable_year":"2020","level":"4C","city_name":"安康市","location":{"type":"Point","coordinates":[108.8725,32.75694]}},{"name":"宝鸡机场","icao":"","iata":"","status":1,"enable_year":"","level":"","city_name":"宝鸡市"},{"name":"定边机场","icao":"","iata":"","status":1,"enable_year":"","level":"","city_name":"定边县"},{"name":"府谷机场","icao":"","iata":"","status":1,"enable_year":"","level":"","city_name":"府谷县、神木县"},{"name":"渭南华山机场","icao":"","iata":"","status":1,"enable_year":"","level":"","city_name":"渭南市"},{"name":"兰州中川国际机场","icao":"ZLLL","iata":"LHW","status":0,"enable_year":"1970","level":"4E","city_name":"兰州市、白银市","location":{"type":"Point","coordinates":[103.61944,36.5075]}},{"name":"敦煌机场","icao":"ZLDH","iata":"DNH","status":0,"enable_year":"1982","level":"4D","city_name":"敦煌市","location":{"type":"Point","coordinates":[94.804992,40.166196]}},{"name":"嘉峪关机场","icao":"ZLJQ","iata":"JGN","status":0,"enable_year":"1953","level":"4C","city_name":"嘉峪关市、酒泉市","location":{"type":"Point","coordinates":[98.341099,39.864546]}},{"name":"庆阳西峰机场","icao":"ZLQY","iata":"IQN","status":0,"enable_year":"1977","level":"4C","city_name":"庆阳市","location":{"type":"Point","coordinates":[107.60884,35.801469]}},{"name":"金昌金川机场","icao":"ZLJC","iata":"JIC","status":0,"enable_year":"2011","level":"4C","city_name":"金昌市","location":{"type":"Point","coordinates":[102.346523,38.540375]}},{"name":"张掖甘州机场","icao":"ZLZY","iata":"YZY","status":0,"enable_year":"2011","level":"4C","city_name":"张掖市","location":{"type":"Point","coordinates":[100.656261,38.814174]}},{"name":"甘南夏河机场","icao":"ZLXH","iata":"JXH","status":0,"enable_year":"2013","level":"4C","city_name":"甘南藏族自治州","location":{"type":"Point","coordinates":[102.623137,34.821633]}},{"name":"陇南成县机场","icao":"ZLLN","iata":"LNL","status":0,"enable_year":"2018","level":"4C","city_name":"陇南市","location":{"type":"Point","coordinates":[105.780421,33.786219]}},{"name":"天水麦积山机场","icao":"ZLTS","iata":"THQ","status":0,"enable_year":"2008","level":"3C","city_name":"天水市","location":{"type":"Point","coordinates":[105.868886,34.555006]}},{"name":"临夏机场","icao":"","iata":"","status":1,"enable_year":"","level":"","city_name":"临夏回族自治州"},{"name":"平凉机场","icao":"","iata":"","status":1,"enable_year":"","level":"","city_name":"平凉市"},{"name":"天水中梁机场","icao":"","iata":"","status":1,"enable_year":"","level":"","city_name":"天水市"},{"name":"武威凉州机场","icao":"","iata":"","status":1,"enable_year":"","level":"","city_name":"武威市"},{"name":"西宁曹家堡国际机场","icao":"ZLXN","iata":"XNN","status":0,"enable_year":"1991","level":"4E","city_name":"西宁市、海东市","location":{"type":"Point","coordinates":[102.04694,36.52833]}},{"name":"格尔木机场","icao":"ZLGM","iata":"GOQ","status":0,"enable_year":"1974","level":"4D","city_name":"格尔木市","location":{"type":"Point","coordinates":[94.790359,36.403478]}},{"name":"玉树巴塘机场","icao":"ZLYS","iata":"YUS","status":0,"enable_year":"2009","level":"4C","city_name":"玉树藏族自治州","location":{"type":"Point","coordinates":[97.038538,32.837708]}},{"name":"德令哈机场","icao":"ZLDL","iata":"HXD","status":0,"enable_year":"2014","level":"4C","city_name":"德令哈市","location":{"type":"Point","coordinates":[97.266317,37.128581]}},{"name":"茫崖花土沟机场","icao":"ZLHX","iata":"HTT","status":0,"enable_year":"2015","level":"4C","city_name":"茫崖行政区","location":{"type":"Point","coordinates":[90.84167,38.20333]}},{"name":"果洛玛沁机场","icao":"ZLGL","iata":"GMQ","status":0,"enable_year":"2016","level":"4C","city_name":"果洛藏族自治州","location":{"type":"Point","coordinates":[100.302829,34.417942]}},{"name":"海北祁连机场","icao":"ZLHB","iata":"HBQ","status":0,"enable_year":"2018","level":"4C","city_name":"海北藏族自治州","location":{"type":"Point","coordinates":[100.6425,38.00861]}},{"name":"青海湖机场","icao":"","iata":"","status":2,"enable_year":"","level":"","city_name":"共和县","location":{"type":"Point","coordinates":[100.48419,36.337582]}},{"name":"黄南机场","icao":"","iata":"","status":1,"enable_year":"","level":"","city_name":"黄南藏族自治州"},{"name":"银川河东国际机场","icao":"ZLIC","iata":"INC","status":0,"enable_year":"1997","level":"4E","city_name":"银川市","location":{"type":"Point","coordinates":[106.3925,38.32167]}},{"name":"中卫沙坡头机场","icao":"ZLZW","iata":"ZHY","status":0,"enable_year":"2008","level":"4C","city_name":"中卫市","location":{"type":"Point","coordinates":[105.156345,37.569743]}},{"name":"固原六盘山机场","icao":"ZLGY","iata":"GYU","status":0,"enable_year":"2010","level":"4C","city_name":"固原市","location":{"type":"Point","coordinates":[106.225806,36.076453]}},{"name":"石嘴山沙湖机场","icao":"","iata":"","status":1,"enable_year":"","level":"","city_name":"石嘴山市"},{"name":"乌鲁木齐地窝堡国际机场","icao":"ZWWW","iata":"URC","status":0,"enable_year":"1931","level":"4E","city_name":"乌鲁木齐市、昌吉市","location":{"type":"Point","coordinates":[87.47417,43.90722]}},{"name":"喀什机场","icao":"ZWSH","iata":"KHG","status":0,"enable_year":"1954","level":"4E","city_name":"喀什市","location":{"type":"Point","coordinates":[76.013336,39.537295]}},{"name":"吐鲁番交河机场","icao":"ZWTP","iata":"TLQ","status":0,"enable_year":"2010","level":"4E","city_name":"吐鲁番市","location":{"type":"Point","coordinates":[89.103432,43.028457]}},{"name":"和田机场","icao":"ZWTN","iata":"HTN","status":0,"enable_year":"1957","level":"4D","city_name":"和田地区","location":{"type":"Point","coordinates":[79.874275,37.039653]}},{"name":"克拉玛依机场","icao":"ZWKM","iata":"KRY","status":0,"enable_year":"2006","level":"4D","city_name":"克拉玛依市","location":{"type":"Point","coordinates":[84.959704,45.468253]}},{"name":"库尔勒机场","icao":"ZWKL","iata":"KRL","status":0,"enable_year":"2007","level":"4D","city_name":"库尔勒市","location":{"type":"Point","coordinates":[86.143635,41.622778]}},{"name":"哈密机场","icao":"ZWHM","iata":"HMI","status":0,"enable_year":"1932","level":"4C","city_name":"哈密市","location":{"type":"Point","coordinates":[93.657278,42.841254]}},{"name":"伊宁机场","icao":"ZWYN","iata":"YIN","status":0,"enable_year":"1936","level":"4C","city_name":"伊宁市","location":{"type":"Point","coordinates":[81.334181,43.953542]}},{"name":"阿勒泰机场","icao":"ZWAT","iata":"AAT","status":0,"enable_year":"1956","level":"4C","city_name":"阿勒泰市","location":{"type":"Point","coordinates":[88.091107,47.75317]}},{"name":"阿克苏温宿机场","icao":"ZWAK","iata":"AKU","status":0,"enable_year":"1973","level":"4C","city_name":"阿克苏市","location":{"type":"Point","coordinates":[80.298624,41.259685]}},{"name":"塔城机场","icao":"ZWTC","iata":"TCG","status":0,"enable_year":"1995","level":"4C","city_name":"塔城地区","location":{"type":"Point","coordinates":[83.342867,46.671033]}},{"name":"新源那拉提机场","icao":"ZWNL","iata":"NLT","status":0,"enable_year":"2006","level":"4C","city_name":"新源县","location":{"type":"Point","coordinates":[83.379112,43.430382]}},{"name":"布尔津喀纳斯机场","icao":"ZWKN","iata":"KJI","status":0,"enable_year":"2007","level":"4C","city_name":"布尔津县","location":{"type":"Point","coordinates":[87.005696,48.224363]}},{"name":"博乐阿拉山口机场","icao":"ZWBL","iata":"BPL","status":0,"enable_year":"2010","level":"4C","city_name":"博乐市","location":{"type":"Point","coordinates":[82.303013,44.900345]}},{"name":"库车龟兹机场","icao":"ZWKC","iata":"KCA","status":0,"enable_year":"2011","level":"4C","city_name":"库车县","location":{"type":"Point","coordinates":[82.876682,41.68274]}},{"name":"石河子花园机场","icao":"ZWHZ","iata":"SHF","status":0,"enable_year":"2015","level":"4C","city_name":"石河子市","location":{"type":"Point","coordinates":[85.896581,44.246631]}},{"name":"富蕴可可托海机场","icao":"ZWFY","iata":"FYN","status":0,"enable_year":"2015","level":"4C","city_name":"富蕴县","location":{"type":"Point","coordinates":[89.517396,46.808663]}},{"name":"且末玉都机场","icao":"ZWCM","iata":"IQM","status":0,"enable_year":"2016","level":"4C","city_name":"且末县","location":{"type":"Point","coordinates":[85.469729,38.233142]}},{"name":"莎车叶尔羌机场","icao":"ZWSC","iata":"QSZ","status":0,"enable_year":"2017","level":"4C","city_name":"莎车县","location":{"type":"Point","coordinates":[77.064252,38.25107]}},{"name":"若羌楼兰机场","icao":"ZWRQ","iata":"RQA","status":0,"enable_year":"2018","level":"4C","city_name":"若羌县","location":{"type":"Point","coordinates":[88.02889,38.98861]}},{"name":"图木舒克唐王城机场","icao":"ZWTS","iata":"TWC","status":0,"enable_year":"2018","level":"4C","city_name":"图木舒克市"},{"name":"于田万方机场","icao":"","iata":"YTW","status":0,"enable_year":"2020","level":"4C","city_name":"于田县、策勒县、民丰县"},{"name":"塔什库尔干帕米尔机场","icao":"","iata":"","status":2,"enable_year":"预计2022","level":"4C","city_name":"塔什库尔干塔吉克自治县"},{"name":"阿拉尔机场","icao":"","iata":"","status":1,"enable_year":"","level":"","city_name":"阿拉尔市"},{"name":"巴里坤机场","icao":"","iata":"","status":1,"enable_year":"","level":"","city_name":"巴里坤哈萨克自治县"},{"name":"和布克赛尔机场","icao":"","iata":"","status":1,"enable_year":"","level":"","city_name":"和布克赛尔蒙古自治县"},{"name":"和静巴音布鲁克机场","icao":"","iata":"","status":1,"enable_year":"","level":"","city_name":"和静县"},{"name":"乌苏奎屯机场","icao":"","iata":"","status":1,"enable_year":"","level":"","city_name":"乌苏市、奎屯市"},{"name":"昭苏机场","icao":"","iata":"","status":1,"enable_year":"","level":"","city_name":"昭苏县、特克斯县"},{"name":"准东奇台机场","icao":"","iata":"","status":1,"enable_year":"","level":"","city_name":"昌吉回族自治州"},{"name":"香港国际机场","icao":"VHHH","iata":"HKG","status":0,"enable_year":"1998","level":"4F","city_name":"香港","location":{"type":"Point","coordinates":[113.91444,22.30889]}},{"name":"澳门国际机场","icao":"VMMC","iata":"MFM","status":0,"enable_year":"1995","level":"4E","city_name":"澳门","location":{"type":"Point","coordinates":[113.59167,22.14944]}}]